[
  {
    "name": "מקלט 01 - אברבנאל 26",
    "address": "32.8306442, 35.0591966",
    "city": "Haifa",
    "capacity": 50,
    "accessible": true,
    "type": "public_shelter",
    "location": {
      "type": "Point",
      "coordinates": [
        35.0591966,
        32.8306442
      ]
    }
  },
  {
    "name": "מקלט 02 - אברבנאל 69",
    "address": "בחצר בית הכנסת",
    "city": "Haifa",
    "capacity": 50,
    "accessible": true,
    "type": "public_shelter",
    "location": {
      "type": "Point",
      "coordinates": [
        35.0569385,
        32.8316497
      ]
    }
  },
  {
    "name": "מקלט 03 - אנה פרנק 11",
    "address": "32.827955, 35.0641684",
    "city": "Haifa",
    "capacity": 50,
    "accessible": true,
    "type": "public_shelter",
    "location": {
      "type": "Point",
      "coordinates": [
        35.0641684,
        32.827955
      ]
    }
  },
  {
    "name": "מקלט 04 - אנה פרנק 40",
    "address": "32.8296515, 35.0655986",
    "city": "Haifa",
    "capacity": 50,
    "accessible": true,
    "type": "public_shelter",
    "location": {
      "type": "Point",
      "coordinates": [
        35.0655986,
        32.8296515
      ]
    }
  },
  {
    "name": "מקלט 5 - ארזים 65",
    "address": "32.8323714, 35.0612642",
    "city": "Haifa",
    "capacity": 50,
    "accessible": true,
    "type": "public_shelter",
    "location": {
      "type": "Point",
      "coordinates": [
        35.0612642,
        32.8323714
      ]
    }
  },
  {
    "name": "מקלט 06 - משמר העמק 10",
    "address": "32.8351242, 35.0623119",
    "city": "Haifa",
    "capacity": 50,
    "accessible": true,
    "type": "public_shelter",
    "location": {
      "type": "Point",
      "coordinates": [
        35.0623119,
        32.8351242
      ]
    }
  },
  {
    "name": "מקלט 07 - בנציון ישראלי 41",
    "address": "בפינה של ביה״ס ״גורדון״",
    "city": "Haifa",
    "capacity": 50,
    "accessible": true,
    "type": "public_shelter",
    "location": {
      "type": "Point",
      "coordinates": [
        35.059341,
        32.833791
      ]
    }
  },
  {
    "name": "מקלט 08 - משמר העמק 19",
    "address": "32.8361724, 35.0599265",
    "city": "Haifa",
    "capacity": 50,
    "accessible": true,
    "type": "public_shelter",
    "location": {
      "type": "Point",
      "coordinates": [
        35.0599265,
        32.8361724
      ]
    }
  },
  {
    "name": "מקלט 09 - בית אלפא 27",
    "address": "32.834559, 35.0577945",
    "city": "Haifa",
    "capacity": 50,
    "accessible": true,
    "type": "public_shelter",
    "location": {
      "type": "Point",
      "coordinates": [
        35.0577945,
        32.834559
      ]
    }
  },
  {
    "name": "מקלט 10 - שדרות דגניה 10",
    "address": "32.8283226, 35.0607777",
    "city": "Haifa",
    "capacity": 50,
    "accessible": true,
    "type": "public_shelter",
    "location": {
      "type": "Point",
      "coordinates": [
        35.0607777,
        32.8283226
      ]
    }
  },
  {
    "name": "מקלט 11 - דגניה 35",
    "address": "מאחורי בית הספר דגניה",
    "city": "Haifa",
    "capacity": 50,
    "accessible": true,
    "type": "public_shelter",
    "location": {
      "type": "Point",
      "coordinates": [
        35.056819,
        32.8298767
      ]
    }
  },
  {
    "name": "מקלט 12 - שדרות דגניה 53 א׳",
    "address": "בחצר ביה״ס ״רגבים״",
    "city": "Haifa",
    "capacity": 50,
    "accessible": true,
    "type": "public_shelter",
    "location": {
      "type": "Point",
      "coordinates": [
        35.0544698,
        32.8310449
      ]
    }
  },
  {
    "name": "מקלט 13 - שדרות דגניה 53 ב׳",
    "address": "בחצר ביה״ס ״רגבים״",
    "city": "Haifa",
    "capacity": 50,
    "accessible": true,
    "type": "public_shelter",
    "location": {
      "type": "Point",
      "coordinates": [
        35.0544698,
        32.8310449
      ]
    }
  },
  {
    "name": "מקלט 14 - נתיב התנאים 16",
    "address": "בחצר ביה״ס הרא״ה ק. שמואל",
    "city": "Haifa",
    "capacity": 50,
    "accessible": true,
    "type": "public_shelter",
    "location": {
      "type": "Point",
      "coordinates": [
        35.0665158,
        32.8345642
      ]
    }
  },
  {
    "name": "מקלט 15 - יעקב כ\"ץ 15",
    "address": "32.8383281, 35.068732",
    "city": "Haifa",
    "capacity": 50,
    "accessible": true,
    "type": "public_shelter",
    "location": {
      "type": "Point",
      "coordinates": [
        35.068732,
        32.8383281
      ]
    }
  },
  {
    "name": "מקלט 16 - השקד 2",
    "address": "32.8192813, 35.0770058",
    "city": "Haifa",
    "capacity": 50,
    "accessible": true,
    "type": "public_shelter",
    "location": {
      "type": "Point",
      "coordinates": [
        35.0770058,
        32.8192813
      ]
    }
  },
  {
    "name": "מקלט 17 א' - הנוטר 51",
    "address": "32.8232086, 35.0695411",
    "city": "Haifa",
    "capacity": 50,
    "accessible": true,
    "type": "public_shelter",
    "location": {
      "type": "Point",
      "coordinates": [
        35.0695411,
        32.8232086
      ]
    }
  },
  {
    "name": "מקלט 17 - הנוטר 53",
    "address": "בגן",
    "city": "Haifa",
    "capacity": 50,
    "accessible": true,
    "type": "public_shelter",
    "location": {
      "type": "Point",
      "coordinates": [
        35.0700536,
        32.8239179
      ]
    }
  },
  {
    "name": "מקלט 18 - הפלוגות 54",
    "address": "32.83065, 35.071597",
    "city": "Haifa",
    "capacity": 50,
    "accessible": true,
    "type": "public_shelter",
    "location": {
      "type": "Point",
      "coordinates": [
        35.071597,
        32.83065
      ]
    }
  },
  {
    "name": "מקלט 19 - השיירה 33",
    "address": "32.820305, 35.0730257",
    "city": "Haifa",
    "capacity": 50,
    "accessible": true,
    "type": "public_shelter",
    "location": {
      "type": "Point",
      "coordinates": [
        35.0730257,
        32.820305
      ]
    }
  },
  {
    "name": "מקלט 20 - הקיבוצים 73",
    "address": "32.8281481, 35.0730367",
    "city": "Haifa",
    "capacity": 50,
    "accessible": true,
    "type": "public_shelter",
    "location": {
      "type": "Point",
      "coordinates": [
        35.0730367,
        32.8281481
      ]
    }
  },
  {
    "name": "מקלט 21 - הראשונים 55",
    "address": "32.8246618, 35.0673004",
    "city": "Haifa",
    "capacity": 50,
    "accessible": true,
    "type": "public_shelter",
    "location": {
      "type": "Point",
      "coordinates": [
        35.0673004,
        32.8246618
      ]
    }
  },
  {
    "name": "מקלט 22 - חומה ומגדל 18 א׳",
    "address": "בחורשה",
    "city": "Haifa",
    "capacity": 50,
    "accessible": true,
    "type": "public_shelter",
    "location": {
      "type": "Point",
      "coordinates": [
        35.0748401,
        32.8178066
      ]
    }
  },
  {
    "name": "מקלט 23 - הקונגרס 43א׳",
    "address": "״בית היינה״",
    "city": "Haifa",
    "capacity": 50,
    "accessible": true,
    "type": "public_shelter",
    "location": {
      "type": "Point",
      "coordinates": [
        35.0567483,
        32.834984
      ]
    }
  },
  {
    "name": "מקלט 24 - יצחק יציב 46",
    "address": "ליד ״בית יציב״",
    "city": "Haifa",
    "capacity": 50,
    "accessible": true,
    "type": "public_shelter",
    "location": {
      "type": "Point",
      "coordinates": [
        35.0719502,
        32.8219956
      ]
    }
  },
  {
    "name": "מקלט 25 - יצחק יציב 24",
    "address": "32.819994, 35.070554",
    "city": "Haifa",
    "capacity": 50,
    "accessible": true,
    "type": "public_shelter",
    "location": {
      "type": "Point",
      "coordinates": [
        35.070554,
        32.819994
      ]
    }
  },
  {
    "name": "מקלט 26 - אלכסנדר זייד 77",
    "address": "32.8281394, 35.0681199",
    "city": "Haifa",
    "capacity": 50,
    "accessible": true,
    "type": "public_shelter",
    "location": {
      "type": "Point",
      "coordinates": [
        35.0681199,
        32.8281394
      ]
    }
  },
  {
    "name": "מקלט 27 - ברכה פולד 13",
    "address": "מאחורי ביטוח לאומי",
    "city": "Haifa",
    "capacity": 50,
    "accessible": true,
    "type": "public_shelter",
    "location": {
      "type": "Point",
      "coordinates": [
        35.0759259,
        32.8198759
      ]
    }
  },
  {
    "name": "מקלט 28 - ציזלינג 26",
    "address": "32.8231973, 35.0752869",
    "city": "Haifa",
    "capacity": 50,
    "accessible": true,
    "type": "public_shelter",
    "location": {
      "type": "Point",
      "coordinates": [
        35.0752869,
        32.8231973
      ]
    }
  },
  {
    "name": "מקלט 29 - שבטי ישראל 66",
    "address": "32.8221586, 35.0788896",
    "city": "Haifa",
    "capacity": 50,
    "accessible": true,
    "type": "public_shelter",
    "location": {
      "type": "Point",
      "coordinates": [
        35.0788896,
        32.8221586
      ]
    }
  },
  {
    "name": "מקלט 30 - שר שטרית 26",
    "address": "32.825714, 35.0701247",
    "city": "Haifa",
    "capacity": 50,
    "accessible": true,
    "type": "public_shelter",
    "location": {
      "type": "Point",
      "coordinates": [
        35.0701247,
        32.825714
      ]
    }
  },
  {
    "name": "מקלט 31 - אינטרנציונל 20",
    "address": "32.779346, 35.0099847",
    "city": "Haifa",
    "capacity": 50,
    "accessible": true,
    "type": "public_shelter",
    "location": {
      "type": "Point",
      "coordinates": [
        35.0099847,
        32.779346
      ]
    }
  },
  {
    "name": "מקלט 32 - ברל כצנלסון 3",
    "address": "32.7860665, 35.01648",
    "city": "Haifa",
    "capacity": 50,
    "accessible": true,
    "type": "public_shelter",
    "location": {
      "type": "Point",
      "coordinates": [
        35.01648,
        32.7860665
      ]
    }
  },
  {
    "name": "מקלט 33 - ברל כצנלסון 29‎",
    "address": "ביה״ס הפתוח",
    "city": "Haifa",
    "capacity": 50,
    "accessible": true,
    "type": "public_shelter",
    "location": {
      "type": "Point",
      "coordinates": [
        35.0127798,
        32.7872652
      ]
    }
  },
  {
    "name": "מקלט 34 - בורוכוב 25",
    "address": "32.7806157, 35.0117825",
    "city": "Haifa",
    "capacity": 50,
    "accessible": true,
    "type": "public_shelter",
    "location": {
      "type": "Point",
      "coordinates": [
        35.0117825,
        32.7806157
      ]
    }
  },
  {
    "name": "מקלט 35 - גורדון 34",
    "address": "32.7834478, 35.0109481",
    "city": "Haifa",
    "capacity": 50,
    "accessible": true,
    "type": "public_shelter",
    "location": {
      "type": "Point",
      "coordinates": [
        35.0109481,
        32.7834478
      ]
    }
  },
  {
    "name": "מקלט 36 - בגליל 79",
    "address": "בית כנסת עמות אל המעיין",
    "city": "Haifa",
    "capacity": 50,
    "accessible": true,
    "type": "public_shelter",
    "location": {
      "type": "Point",
      "coordinates": [
        35.0190217,
        32.7898555
      ]
    }
  },
  {
    "name": "מקלט 37 - הגיבורים 17/25",
    "address": "חינוך",
    "city": "Haifa",
    "capacity": 50,
    "accessible": true,
    "type": "public_shelter",
    "location": {
      "type": "Point",
      "coordinates": [
        35.0059013,
        32.8032969
      ]
    }
  },
  {
    "name": "מקלט 38 - הגיבורים 43",
    "address": "מתחת לבניין מגורים",
    "city": "Haifa",
    "capacity": 50,
    "accessible": true,
    "type": "public_shelter",
    "location": {
      "type": "Point",
      "coordinates": [
        35.0097337,
        32.8023642
      ]
    }
  },
  {
    "name": "מקלט 39 - חביבה רייך 33",
    "address": "32.7781923, 35.0068681",
    "city": "Haifa",
    "capacity": 50,
    "accessible": true,
    "type": "public_shelter",
    "location": {
      "type": "Point",
      "coordinates": [
        35.0068681,
        32.7781923
      ]
    }
  },
  {
    "name": "מקלט 40 - חטיבת כרמלי 10",
    "address": "מתחת למתחם בית הכנסת",
    "city": "Haifa",
    "capacity": 50,
    "accessible": true,
    "type": "public_shelter",
    "location": {
      "type": "Point",
      "coordinates": [
        35.0155687,
        32.797822
      ]
    }
  },
  {
    "name": "מקלט 41 - יד לבנים 4",
    "address": "ליד קופ״ח",
    "city": "Haifa",
    "capacity": 50,
    "accessible": true,
    "type": "public_shelter",
    "location": {
      "type": "Point",
      "coordinates": [
        35.0102876,
        32.8031447
      ]
    }
  },
  {
    "name": "מקלט 42 - ערד 37",
    "address": "מתחת לבית הכנסת",
    "city": "Haifa",
    "capacity": 50,
    "accessible": true,
    "type": "public_shelter",
    "location": {
      "type": "Point",
      "coordinates": [
        35.0213293,
        32.7916804
      ]
    }
  },
  {
    "name": "מקלט 43 - קומוי 4",
    "address": "32.7816769, 35.0134373",
    "city": "Haifa",
    "capacity": 50,
    "accessible": true,
    "type": "public_shelter",
    "location": {
      "type": "Point",
      "coordinates": [
        35.0134373,
        32.7816769
      ]
    }
  },
  {
    "name": "מקלט 44 - קומוי 28",
    "address": "32.7805904, 35.0131458",
    "city": "Haifa",
    "capacity": 50,
    "accessible": true,
    "type": "public_shelter",
    "location": {
      "type": "Point",
      "coordinates": [
        35.0131458,
        32.7805904
      ]
    }
  },
  {
    "name": "מקלט 45 - רזיאל 44",
    "address": "32.799007, 35.011476",
    "city": "Haifa",
    "capacity": 50,
    "accessible": true,
    "type": "public_shelter",
    "location": {
      "type": "Point",
      "coordinates": [
        35.011476,
        32.799007
      ]
    }
  },
  {
    "name": "מקלט 46 - ארלוזורוב 46",
    "address": "בחצר \"בית שטרוק\"",
    "city": "Haifa",
    "capacity": 50,
    "accessible": true,
    "type": "public_shelter",
    "location": {
      "type": "Point",
      "coordinates": [
        35.0007571,
        32.8051492
      ]
    }
  },
  {
    "name": "מקלט 47 - אשקלון 4‎",
    "address": "אשקלון 4‎‎",
    "city": "Haifa",
    "capacity": 50,
    "accessible": true,
    "type": "public_shelter",
    "location": {
      "type": "Point",
      "coordinates": [
        34.9949709,
        32.814555
      ]
    }
  },
  {
    "name": "מקלט 50 - בן בבא 4",
    "address": "חצר בית הספר ״תורת אמת״",
    "city": "Haifa",
    "capacity": 50,
    "accessible": true,
    "type": "public_shelter",
    "location": {
      "type": "Point",
      "coordinates": [
        35.0023535,
        32.8035932
      ]
    }
  },
  {
    "name": "מקלט 52 - השומר 3",
    "address": "בסמוך לאגף הפיקוח העירוני",
    "city": "Haifa",
    "capacity": 50,
    "accessible": true,
    "type": "public_shelter",
    "location": {
      "type": "Point",
      "coordinates": [
        35.0039677,
        32.8078682
      ]
    }
  },
  {
    "name": "מקלט 53 - הרצל 73",
    "address": "בחצר קופת חולים מכבי",
    "city": "Haifa",
    "capacity": 50,
    "accessible": true,
    "type": "public_shelter",
    "location": {
      "type": "Point",
      "coordinates": [
        35.0023979,
        32.8068278
      ]
    }
  },
  {
    "name": "מקלט 54 - הרצל 101",
    "address": "בחצר בית הספר",
    "city": "Haifa",
    "capacity": 50,
    "accessible": true,
    "type": "public_shelter",
    "location": {
      "type": "Point",
      "coordinates": [
        35.0035641,
        32.8045521
      ]
    }
  },
  {
    "name": "מקלט 55 - הירדן 19",
    "address": "ליד אגף הרווחה",
    "city": "Haifa",
    "capacity": 50,
    "accessible": true,
    "type": "public_shelter",
    "location": {
      "type": "Point",
      "coordinates": [
        35.0090088,
        32.8015623
      ]
    }
  },
  {
    "name": "מקלט 56 - הרצליה 17",
    "address": "מתחת לבניין המגורים",
    "city": "Haifa",
    "capacity": 50,
    "accessible": true,
    "type": "public_shelter",
    "location": {
      "type": "Point",
      "coordinates": [
        34.9926524,
        32.8130691
      ]
    }
  },
  {
    "name": "מקלט 58 - ארלוזורוב 65",
    "address": "הכניסה דרך השביל בצמוד לתחנת אוטובוס",
    "city": "Haifa",
    "capacity": 50,
    "accessible": true,
    "type": "public_shelter",
    "location": {
      "type": "Point",
      "coordinates": [
        34.995531,
        32.8070407
      ]
    }
  },
  {
    "name": "מקלט 59 תל חי 21/ יוסף 18",
    "address": "32.8067574, 34.997773",
    "city": "Haifa",
    "capacity": 50,
    "accessible": true,
    "type": "public_shelter",
    "location": {
      "type": "Point",
      "coordinates": [
        34.997773,
        32.8067574
      ]
    }
  },
  {
    "name": "מקלט 60 - יוסף 47",
    "address": "סמוך לתיאטרון העירוני",
    "city": "Haifa",
    "capacity": 50,
    "accessible": true,
    "type": "public_shelter",
    "location": {
      "type": "Point",
      "coordinates": [
        34.9988834,
        32.8059292
      ]
    }
  },
  {
    "name": "מקלט 61 - יודפת 11",
    "address": "32.807695, 35.0045653",
    "city": "Haifa",
    "capacity": 50,
    "accessible": true,
    "type": "public_shelter",
    "location": {
      "type": "Point",
      "coordinates": [
        35.0045653,
        32.807695
      ]
    }
  },
  {
    "name": "מקלט 62 - לונץ 4",
    "address": "מתחם הכניסה לשוק",
    "city": "Haifa",
    "capacity": 50,
    "accessible": true,
    "type": "public_shelter",
    "location": {
      "type": "Point",
      "coordinates": [
        35.0018008,
        32.8081271
      ]
    }
  },
  {
    "name": "מקלט 63 - מדרגות בית שערים 5",
    "address": "הכניסה משד׳ הציונות",
    "city": "Haifa",
    "capacity": 50,
    "accessible": true,
    "type": "public_shelter",
    "location": {
      "type": "Point",
      "coordinates": [
        34.9902265,
        32.8132833
      ]
    }
  },
  {
    "name": "מקלט 64 - מרכוס 11",
    "address": "32.8206697, 34.976463",
    "city": "Haifa",
    "capacity": 50,
    "accessible": true,
    "type": "public_shelter",
    "location": {
      "type": "Point",
      "coordinates": [
        34.976463,
        32.8206697
      ]
    }
  },
  {
    "name": "מקלט 65 - עמק הזיתים 9",
    "address": "32.810831, 34.994718",
    "city": "Haifa",
    "capacity": 50,
    "accessible": true,
    "type": "public_shelter",
    "location": {
      "type": "Point",
      "coordinates": [
        34.994718,
        32.810831
      ]
    }
  },
  {
    "name": "מקלט 66 - קיבוץ גלויות 15",
    "address": "32.8112329, 35.0041346",
    "city": "Haifa",
    "capacity": 50,
    "accessible": true,
    "type": "public_shelter",
    "location": {
      "type": "Point",
      "coordinates": [
        35.0041346,
        32.8112329
      ]
    }
  },
  {
    "name": "מקלט 67 - קסל 18",
    "address": "פינת בן יהודה",
    "city": "Haifa",
    "capacity": 50,
    "accessible": true,
    "type": "public_shelter",
    "location": {
      "type": "Point",
      "coordinates": [
        34.9949655,
        32.809523
      ]
    }
  },
  {
    "name": "מקלט 68 - קיסריה 4",
    "address": "ואדי ניסינאס",
    "city": "Haifa",
    "capacity": 50,
    "accessible": true,
    "type": "public_shelter",
    "location": {
      "type": "Point",
      "coordinates": [
        34.9964003,
        32.8170554
      ]
    }
  },
  {
    "name": "מקלט 69 - שבתאי לוי 26",
    "address": "בחצר המוזיאון",
    "city": "Haifa",
    "capacity": 50,
    "accessible": true,
    "type": "public_shelter",
    "location": {
      "type": "Point",
      "coordinates": [
        34.99261,
        32.815075
      ]
    }
  },
  {
    "name": "מקלט 70 - שד׳ הציונות 53",
    "address": "32.8128994, 34.9918067",
    "city": "Haifa",
    "capacity": 50,
    "accessible": true,
    "type": "public_shelter",
    "location": {
      "type": "Point",
      "coordinates": [
        34.9918067,
        32.8128994
      ]
    }
  },
  {
    "name": "מקלט 71 - אל מוהדי 12",
    "address": "כבביר",
    "city": "Haifa",
    "capacity": 50,
    "accessible": true,
    "type": "public_shelter",
    "location": {
      "type": "Point",
      "coordinates": [
        34.9714395,
        32.8058105
      ]
    }
  },
  {
    "name": "מקלט 73 - הצלפים 5",
    "address": "מתחת לבית הכנסת",
    "city": "Haifa",
    "capacity": 50,
    "accessible": true,
    "type": "public_shelter",
    "location": {
      "type": "Point",
      "coordinates": [
        34.9947205,
        32.7882004
      ]
    }
  },
  {
    "name": "מקלט 74 - שדרות מוריה 16",
    "address": "32.8007256, 34.9838817",
    "city": "Haifa",
    "capacity": 50,
    "accessible": true,
    "type": "public_shelter",
    "location": {
      "type": "Point",
      "coordinates": [
        34.9838817,
        32.8007256
      ]
    }
  },
  {
    "name": "מקלט 75 - צפרירים 6‎",
    "address": "32.7973142, 34.9829647",
    "city": "Haifa",
    "capacity": 50,
    "accessible": true,
    "type": "public_shelter",
    "location": {
      "type": "Point",
      "coordinates": [
        34.9829647,
        32.7973142
      ]
    }
  },
  {
    "name": "מקלט 77 - אלנבי 8",
    "address": "בצומת",
    "city": "Haifa",
    "capacity": 50,
    "accessible": true,
    "type": "public_shelter",
    "location": {
      "type": "Point",
      "coordinates": [
        34.9966664,
        32.8187179
      ]
    }
  },
  {
    "name": "מקלט 78 - אלנבי 72",
    "address": "32.819373, 34.986893",
    "city": "Haifa",
    "capacity": 50,
    "accessible": true,
    "type": "public_shelter",
    "location": {
      "type": "Point",
      "coordinates": [
        34.986893,
        32.819373
      ]
    }
  },
  {
    "name": "מקלט 80 - אל עתיקה 18",
    "address": "32.8283403, 34.9880323",
    "city": "Haifa",
    "capacity": 50,
    "accessible": true,
    "type": "public_shelter",
    "location": {
      "type": "Point",
      "coordinates": [
        34.9880323,
        32.8283403
      ]
    }
  },
  {
    "name": "מקלט 81 - גוטליב שומכר 2 א׳",
    "address": "בחצר ארכיון העיר",
    "city": "Haifa",
    "capacity": 50,
    "accessible": true,
    "type": "public_shelter",
    "location": {
      "type": "Point",
      "coordinates": [
        34.9884233,
        32.8205539
      ]
    }
  },
  {
    "name": "מקלט 82 - שד׳ בן גוריון 26",
    "address": "מושבה גרמנית",
    "city": "Haifa",
    "capacity": 50,
    "accessible": true,
    "type": "public_shelter",
    "location": {
      "type": "Point",
      "coordinates": [
        34.9906966,
        32.820745
      ]
    }
  },
  {
    "name": "מקלט 83 - גדנ״ע 5",
    "address": "קריית אליעזר",
    "city": "Haifa",
    "capacity": 50,
    "accessible": true,
    "type": "public_shelter",
    "location": {
      "type": "Point",
      "coordinates": [
        34.9792946,
        32.8253471
      ]
    }
  },
  {
    "name": "מקלט 84 - דרך צרפת 85",
    "address": "בחצר ביה״ס ״רמות״",
    "city": "Haifa",
    "capacity": 50,
    "accessible": true,
    "type": "public_shelter",
    "location": {
      "type": "Point",
      "coordinates": [
        34.9666751,
        32.8228442
      ]
    }
  },
  {
    "name": "מקלט 85 - המלך דוד 7",
    "address": "32.807447, 34.959897",
    "city": "Haifa",
    "capacity": 50,
    "accessible": true,
    "type": "public_shelter",
    "location": {
      "type": "Point",
      "coordinates": [
        34.959897,
        32.807447
      ]
    }
  },
  {
    "name": "מקלט 86 - המלך דוד 26",
    "address": "ליד בית הכנסת",
    "city": "Haifa",
    "capacity": 50,
    "accessible": true,
    "type": "public_shelter",
    "location": {
      "type": "Point",
      "coordinates": [
        34.9594906,
        32.8097511
      ]
    }
  },
  {
    "name": "מקלט 87 - העלייה השנייה 13",
    "address": "מאחורי בניין 13, בחניית עפר",
    "city": "Haifa",
    "capacity": 50,
    "accessible": true,
    "type": "public_shelter",
    "location": {
      "type": "Point",
      "coordinates": [
        34.983962,
        32.8309911
      ]
    }
  },
  {
    "name": "מקלט 88 - העלייה השניה 25",
    "address": "בגן בסמוך לכניסה לרכבת",
    "city": "Haifa",
    "capacity": 50,
    "accessible": true,
    "type": "public_shelter",
    "location": {
      "type": "Point",
      "coordinates": [
        34.9825262,
        32.8322165
      ]
    }
  },
  {
    "name": "מקלט 89 - העלייה השניה 45",
    "address": "מאחורי המרכז הקהילתי",
    "city": "Haifa",
    "capacity": 50,
    "accessible": true,
    "type": "public_shelter",
    "location": {
      "type": "Point",
      "coordinates": [
        34.9778893,
        32.8320854
      ]
    }
  },
  {
    "name": "מקלט 90 - הקלעים 10",
    "address": "פינת רח׳ החייל",
    "city": "Haifa",
    "capacity": 50,
    "accessible": true,
    "type": "public_shelter",
    "location": {
      "type": "Point",
      "coordinates": [
        34.975833,
        32.8312923
      ]
    }
  },
  {
    "name": "מקלט 91 - הזית 15",
    "address": "קריית אליעזר",
    "city": "Haifa",
    "capacity": 50,
    "accessible": true,
    "type": "public_shelter",
    "location": {
      "type": "Point",
      "coordinates": [
        34.9792178,
        32.8282414
      ]
    }
  },
  {
    "name": "מקלט 92 - הזית 22 א׳",
    "address": "32.8277168, 34.9792824",
    "city": "Haifa",
    "capacity": 50,
    "accessible": true,
    "type": "public_shelter",
    "location": {
      "type": "Point",
      "coordinates": [
        34.9792824,
        32.8277168
      ]
    }
  },
  {
    "name": "מקלט 93 - התקווה 23",
    "address": "בחצר ביה״ס עירוני א׳",
    "city": "Haifa",
    "capacity": 50,
    "accessible": true,
    "type": "public_shelter",
    "location": {
      "type": "Point",
      "coordinates": [
        34.985926,
        32.8251927
      ]
    }
  },
  {
    "name": "מקלט 94 - הגנים 33",
    "address": "מאחורי הבניין, בחניה",
    "city": "Haifa",
    "capacity": 50,
    "accessible": true,
    "type": "public_shelter",
    "location": {
      "type": "Point",
      "coordinates": [
        34.9889843,
        32.8194844
      ]
    }
  },
  {
    "name": "מקלט 95 - המגינים 119",
    "address": "מאחורי הבניין",
    "city": "Haifa",
    "capacity": 50,
    "accessible": true,
    "type": "public_shelter",
    "location": {
      "type": "Point",
      "coordinates": [
        34.9879324,
        32.8225651
      ]
    }
  },
  {
    "name": "מקלט 96 - העוגן 39",
    "address": "מאחורי גן הילדים",
    "city": "Haifa",
    "capacity": 50,
    "accessible": true,
    "type": "public_shelter",
    "location": {
      "type": "Point",
      "coordinates": [
        34.9616789,
        32.8254473
      ]
    }
  },
  {
    "name": "מקלט 97 - טשרניחובסקי 34",
    "address": "בחצר ביה״ס",
    "city": "Haifa",
    "capacity": 50,
    "accessible": true,
    "type": "public_shelter",
    "location": {
      "type": "Point",
      "coordinates": [
        34.975561,
        32.8209854
      ]
    }
  },
  {
    "name": "מקלט 98 - יצחק שדה 26",
    "address": "בחצר ביה״ס ״שלווה״",
    "city": "Haifa",
    "capacity": 50,
    "accessible": true,
    "type": "public_shelter",
    "location": {
      "type": "Point",
      "coordinates": [
        34.9866934,
        32.8213311
      ]
    }
  },
  {
    "name": "מקלט 99 - יואב 13",
    "address": "32.8289337, 34.9763107",
    "city": "Haifa",
    "capacity": 50,
    "accessible": true,
    "type": "public_shelter",
    "location": {
      "type": "Point",
      "coordinates": [
        34.9763107,
        32.8289337
      ]
    }
  },
  {
    "name": "מקלט 100 - מאיר רוטנברג 44",
    "address": "בחצר ההוסטל",
    "city": "Haifa",
    "capacity": 50,
    "accessible": true,
    "type": "public_shelter",
    "location": {
      "type": "Point",
      "coordinates": [
        34.9898349,
        32.8173757
      ]
    }
  },
  {
    "name": "מקלט 101 - עמל 31 א׳",
    "address": "32.8258045, 34.979105",
    "city": "Haifa",
    "capacity": 50,
    "accessible": true,
    "type": "public_shelter",
    "location": {
      "type": "Point",
      "coordinates": [
        34.979105,
        32.8258045
      ]
    }
  },
  {
    "name": "מקלט 102 - צה״ל 51",
    "address": "ליד קופ״ח",
    "city": "Haifa",
    "capacity": 50,
    "accessible": true,
    "type": "public_shelter",
    "location": {
      "type": "Point",
      "coordinates": [
        34.9764399,
        32.8274661
      ]
    }
  },
  {
    "name": "מקלט 103 - שרה 10",
    "address": "פינת הבנקים",
    "city": "Haifa",
    "capacity": 50,
    "accessible": true,
    "type": "public_shelter",
    "location": {
      "type": "Point",
      "coordinates": [
        34.9961456,
        32.820098
      ]
    }
  },
  {
    "name": "מקלט 104 - ציקלג 17",
    "address": "ליד בית הקברות",
    "city": "Haifa",
    "capacity": 50,
    "accessible": true,
    "type": "public_shelter",
    "location": {
      "type": "Point",
      "coordinates": [
        34.96282,
        32.8060802
      ]
    }
  },
  {
    "name": "מקלט 105 - החשמל 8",
    "address": "32.7991277, 35.0145527",
    "city": "Haifa",
    "capacity": 50,
    "accessible": true,
    "type": "public_shelter",
    "location": {
      "type": "Point",
      "coordinates": [
        35.0145527,
        32.7991277
      ]
    }
  },
  {
    "name": "מקלט 107 - אברבנאל 5/וורבורג 7",
    "address": "32.8286726, 35.0624172",
    "city": "Haifa",
    "capacity": 50,
    "accessible": true,
    "type": "public_shelter",
    "location": {
      "type": "Point",
      "coordinates": [
        35.0624172,
        32.8286726
      ]
    }
  },
  {
    "name": "מקלט 108 - זאב בנין 12",
    "address": "32.7971615, 35.0162182",
    "city": "Haifa",
    "capacity": 50,
    "accessible": true,
    "type": "public_shelter",
    "location": {
      "type": "Point",
      "coordinates": [
        35.0162182,
        32.7971615
      ]
    }
  },
  {
    "name": "TOWER (תיאודור)",
    "address": "החלוץ 64 (מקומה 2-)",
    "city": "Haifa",
    "capacity": 50,
    "accessible": true,
    "type": "public_shelter",
    "location": {
      "type": "Point",
      "coordinates": [
        35.0014381,
        32.8081096
      ]
    }
  },
  {
    "name": "חניון בית מאי",
    "address": "חסן שוקרי 5 (מקומה 6-)",
    "city": "Haifa",
    "capacity": 50,
    "accessible": true,
    "type": "parking_shelter",
    "location": {
      "type": "Point",
      "coordinates": [
        34.9980989,
        32.8142991
      ]
    }
  },
  {
    "name": "חניון ארמון",
    "address": "הנביאים 18 (מקומה 4-)",
    "city": "Haifa",
    "capacity": 50,
    "accessible": true,
    "type": "parking_shelter",
    "location": {
      "type": "Point",
      "coordinates": [
        34.9954973,
        32.8135839
      ]
    }
  },
  {
    "name": "חניון סיטי סנטר",
    "address": "הגנים 10 (מקומה 3-)",
    "city": "Haifa",
    "capacity": 50,
    "accessible": true,
    "type": "parking_shelter",
    "location": {
      "type": "Point",
      "coordinates": [
        34.9909186,
        32.8233442
      ]
    }
  },
  {
    "name": "חניון בתי המשפט",
    "address": "פלי\"ם 12 (מקומה 5-)",
    "city": "Haifa",
    "capacity": 50,
    "accessible": true,
    "type": "parking_shelter",
    "location": {
      "type": "Point",
      "coordinates": [
        35.0030346,
        32.8138167
      ]
    }
  },
  {
    "name": "חניון מינהל הנדסה",
    "address": "ביאליק 3 (מקומה 3-)",
    "city": "Haifa",
    "capacity": 50,
    "accessible": true,
    "type": "parking_shelter",
    "location": {
      "type": "Point",
      "coordinates": [
        34.9996858,
        32.8120676
      ]
    }
  },
  {
    "name": "חניון האודיטוריום",
    "address": "מחניים 7 (מקומה 3-)",
    "city": "Haifa",
    "capacity": 50,
    "accessible": true,
    "type": "parking_shelter",
    "location": {
      "type": "Point",
      "coordinates": [
        34.9856448,
        32.8033072
      ]
    }
  },
  {
    "name": "חניון בנק יהב",
    "address": "שד' מוריה 44 (מקומה 2-)",
    "city": "Haifa",
    "capacity": 50,
    "accessible": true,
    "type": "parking_shelter",
    "location": {
      "type": "Point",
      "coordinates": [
        34.98439,
        32.798027
      ]
    }
  },
  {
    "name": "סגור לשיפוצים - חניון בית אמות‎",
    "address": "דרך יפו 157 (מקומה 2-)‎",
    "city": "Haifa",
    "capacity": 50,
    "accessible": true,
    "type": "parking_shelter",
    "location": {
      "type": "Point",
      "coordinates": [
        34.9685906,
        32.8233836
      ]
    }
  },
  {
    "name": "חניון בית גלים",
    "address": "דרך יפו 145 א' (מקומה 3-)",
    "city": "Haifa",
    "capacity": 50,
    "accessible": true,
    "type": "parking_shelter",
    "location": {
      "type": "Point",
      "coordinates": [
        34.9858404,
        32.826942
      ]
    }
  },
  {
    "name": "גב-ים מת\"מ C1",
    "address": "אנדריי סחרוב 9 (מקומה 3-)",
    "city": "Haifa",
    "capacity": 50,
    "accessible": true,
    "type": "public_shelter",
    "location": {
      "type": "Point",
      "coordinates": [
        34.9589649,
        32.7898165
      ]
    }
  },
  {
    "name": "המקלט סגור! גב-ים מת\"מ D2‎",
    "address": "הרכס 1 (מקומה 3-)‎",
    "city": "Haifa",
    "capacity": 50,
    "accessible": true,
    "type": "public_shelter",
    "location": {
      "type": "Point",
      "coordinates": [
        34.959459,
        32.787304
      ]
    }
  },
  {
    "name": "חניון מרכז חורב",
    "address": "ארתור הנטקה 6 (מקומה 3-)",
    "city": "Haifa",
    "capacity": 50,
    "accessible": true,
    "type": "parking_shelter",
    "location": {
      "type": "Point",
      "coordinates": [
        34.9877991,
        32.7838609
      ]
    }
  },
  {
    "name": "חניון בית אבות לב הדר",
    "address": "רחוב י.ל פרץ 7 (מקומה 2-)",
    "city": "Haifa",
    "capacity": 50,
    "accessible": true,
    "type": "parking_shelter",
    "location": {
      "type": "Point",
      "coordinates": [
        34.9961957,
        32.8152219
      ]
    }
  },
  {
    "name": "חניון הכנסייה האורתודוקסית",
    "address": "רחוב הפרסים 3 (מקומה 2-)",
    "city": "Haifa",
    "capacity": 50,
    "accessible": true,
    "type": "parking_shelter",
    "location": {
      "type": "Point",
      "coordinates": [
        34.9920855,
        32.8183579
      ]
    }
  },
  {
    "name": "חניון עין דור סנטרל פארק  ‎",
    "address": "עין דור 11 (מקומה -2)",
    "city": "Haifa",
    "capacity": 50,
    "accessible": true,
    "type": "parking_shelter",
    "location": {
      "type": "Point",
      "coordinates": [
        34.9955347,
        32.8206281
      ]
    }
  },
  {
    "name": "בית ספר אבן גבירול‎‎‎",
    "address": "בודנהיימר 7<br><br>שני מקלטים: אחד יש לעלות 55 מדרגות ללא שביל, הגישה למקלט השני - דרך שביל הגישה שאורכו 20 מטר, ובנוסף יש לרדת 20 מדרגות.<br>‎‎‎",
    "city": "Haifa",
    "capacity": 50,
    "accessible": true,
    "type": "school_shelter",
    "location": {
      "type": "Point",
      "coordinates": [
        34.9645261,
        32.8183971
      ]
    }
  },
  {
    "name": "בית ספר אהוד ‎",
    "address": "אהוד 18‎",
    "city": "Haifa",
    "capacity": 50,
    "accessible": true,
    "type": "school_shelter",
    "location": {
      "type": "Point",
      "coordinates": [
        34.9900171,
        32.7916962
      ]
    }
  },
  {
    "name": "בית ספר אהרון הרא\"ה בנים‎‎",
    "address": "דב פרומר 15‎‎<br><br>3 ממדים מונגשים בקומה תחתונה ללא מדרגות.",
    "city": "Haifa",
    "capacity": 50,
    "accessible": true,
    "type": "school_shelter",
    "location": {
      "type": "Point",
      "coordinates": [
        35.0715431,
        32.8394614
      ]
    }
  },
  {
    "name": "בית ספר אהרון הרא\"ה בנות‎",
    "address": "שד' הרא\"ה 10‎",
    "city": "Haifa",
    "capacity": 50,
    "accessible": true,
    "type": "school_shelter",
    "location": {
      "type": "Point",
      "coordinates": [
        35.066282,
        32.8328463
      ]
    }
  },
  {
    "name": "בית ספר אחווה ‎",
    "address": "קיסריה 20 / טאופיק טובי 18 (הכניסה דרך המרכז הקהילתי)‎",
    "city": "Haifa",
    "capacity": 50,
    "accessible": true,
    "type": "school_shelter",
    "location": {
      "type": "Point",
      "coordinates": [
        34.994979,
        32.8158739
      ]
    }
  },
  {
    "name": "בית ספר אחוזה ‎‎",
    "address": "שד' סיני 13‎‎<br><br>מקלט בקומת כניסה יורדים 20 מדרגות ומקלט נוסף חיצוני בחצר תחתונה, יש לרדת 8 מדרגות לחצר ועוד 20 מדרגות בתוך מקלט.",
    "city": "Haifa",
    "capacity": 50,
    "accessible": true,
    "type": "school_shelter",
    "location": {
      "type": "Point",
      "coordinates": [
        34.9873133,
        32.7878884
      ]
    }
  },
  {
    "name": "בית ספר אחמדיה ‎‎",
    "address": "אל מוהדי 12‎‎<br><br>המקלט מונגש לקומה 1 ואז כ-20 מדרגות למקלט.",
    "city": "Haifa",
    "capacity": 50,
    "accessible": true,
    "type": "school_shelter",
    "location": {
      "type": "Point",
      "coordinates": [
        34.9714395,
        32.8058105
      ]
    }
  },
  {
    "name": "בית ספר איטלקי ‎",
    "address": "האיטלקים 10‎",
    "city": "Haifa",
    "capacity": 50,
    "accessible": true,
    "type": "school_shelter",
    "location": {
      "type": "Point",
      "coordinates": [
        34.9929757,
        32.8195285
      ]
    }
  },
  {
    "name": "בית ספר אילנות ‎",
    "address": "הסנה 8א'‎",
    "city": "Haifa",
    "capacity": 50,
    "accessible": true,
    "type": "school_shelter",
    "location": {
      "type": "Point",
      "coordinates": [
        34.9687699,
        32.8124588
      ]
    }
  },
  {
    "name": "בית ספר אינשטיין ‎",
    "address": "אינשטיין 133‎",
    "city": "Haifa",
    "capacity": 50,
    "accessible": true,
    "type": "school_shelter",
    "location": {
      "type": "Point",
      "coordinates": [
        34.9998438,
        32.7781432
      ]
    }
  },
  {
    "name": "בית ספר אלון ‎",
    "address": "יגאל אלון 8‎",
    "city": "Haifa",
    "capacity": 50,
    "accessible": true,
    "type": "school_shelter",
    "location": {
      "type": "Point",
      "coordinates": [
        35.0121402,
        32.7769448
      ]
    }
  },
  {
    "name": "בית ספר אליאנס ‎‎",
    "address": "דרך בירם 37‎‎<br><br>גישה מלמעלה - יש שער פתוח ירידה עד לדשא, פונים שמאלה ונכנסים למבנה. בתוך המבנה צריך לעלות 18 מדרגות המקלט ממול.<br>גישה מלמטה - עולים את גרמי המדרגות עד לדשא עולים 18 מדרגות המקלט ממול .",
    "city": "Haifa",
    "capacity": 50,
    "accessible": true,
    "type": "school_shelter",
    "location": {
      "type": "Point",
      "coordinates": [
        35.0102279,
        32.7742275
      ]
    }
  },
  {
    "name": "בית ספר אלכרמה ‎",
    "address": "הגפן 15‎",
    "city": "Haifa",
    "capacity": 50,
    "accessible": true,
    "type": "school_shelter",
    "location": {
      "type": "Point",
      "coordinates": [
        34.9897623,
        32.8168866
      ]
    }
  },
  {
    "name": "בית ספר אלכרמה יסודי‎",
    "address": "אלמותנבי 10‎",
    "city": "Haifa",
    "capacity": 50,
    "accessible": true,
    "type": "school_shelter",
    "location": {
      "type": "Point",
      "coordinates": [
        34.9847481,
        32.8165884
      ]
    }
  },
  {
    "name": "בית ספר אלמותנאבי ‎‎",
    "address": "הבישוף חג'אר 1<br><br>הכניסה לביה\"ס נגישה, הכניסה העילית מכיוון מגרש החנייה ואולם הספורט.<br>אין צורך בשימוש במדרגות, המקלט בכניסה ואחד המקלטים נגיש.‎‎",
    "city": "Haifa",
    "capacity": 50,
    "accessible": true,
    "type": "school_shelter",
    "location": {
      "type": "Point",
      "coordinates": [
        34.9826051,
        32.8179049
      ]
    }
  },
  {
    "name": "בית ספר אל-חיוואר‎",
    "address": "צהיון 5‎‎",
    "city": "Haifa",
    "capacity": 50,
    "accessible": true,
    "type": "school_shelter",
    "location": {
      "type": "Point",
      "coordinates": [
        34.9959131,
        32.8180886
      ]
    }
  },
  {
    "name": "בית ספר עמאר‎",
    "address": "הרב אנקואה רפאל 20‎<br><br>המקלט ממוקם בכניסה של בית הספר, בקומת קרקע. מדרגה אחת קטנה, ללא שביל",
    "city": "Haifa",
    "capacity": 50,
    "accessible": true,
    "type": "school_shelter",
    "location": {
      "type": "Point",
      "coordinates": [
        34.9579031,
        32.8191444
      ]
    }
  },
  {
    "name": "בית ספר אולפנה צביה",
    "address": "רבי עקיבא 40",
    "city": "Haifa",
    "capacity": 50,
    "accessible": true,
    "type": "school_shelter",
    "location": {
      "type": "Point",
      "coordinates": [
        34.9969402,
        32.8038317
      ]
    }
  },
  {
    "name": "בית ספר אופקים ‎",
    "address": "דרך הים 44<br><br>שלושה מרחבים מוגנים. שניים בקומת קרקע עם שביל באורך 5 מטר. למקלט השלישי יש לעלות 15 מדרגות",
    "city": "Haifa",
    "capacity": 50,
    "accessible": true,
    "type": "school_shelter",
    "location": {
      "type": "Point",
      "coordinates": [
        34.9802863,
        32.8069292
      ]
    }
  },
  {
    "name": "בית ספר אורים",
    "address": "מונטיפיורי 15 א'",
    "city": "Haifa",
    "capacity": 50,
    "accessible": true,
    "type": "school_shelter",
    "location": {
      "type": "Point",
      "coordinates": [
        34.9938564,
        32.8057646
      ]
    }
  },
  {
    "name": "בית ספר ארלוזורוב",
    "address": "הקיבוצים 65",
    "city": "Haifa",
    "capacity": 50,
    "accessible": true,
    "type": "school_shelter",
    "location": {
      "type": "Point",
      "coordinates": [
        35.0730861,
        32.8271518
      ]
    }
  },
  {
    "name": "בית ספר בסמ\"ת‎",
    "address": "המלך דוד 33‎<br><br>גישה מלמטה - עולים את גרמי המדרגות עד לדשא עולים 18 מדרגות המקלט ממול .",
    "city": "Haifa",
    "capacity": 50,
    "accessible": true,
    "type": "school_shelter",
    "location": {
      "type": "Point",
      "coordinates": [
        34.9581987,
        32.8113994
      ]
    }
  },
  {
    "name": "בית ספר בן גוריון‎",
    "address": "קרן היסוד 33<br>בתוך שטח בית הספר‎",
    "city": "Haifa",
    "capacity": 50,
    "accessible": true,
    "type": "school_shelter",
    "location": {
      "type": "Point",
      "coordinates": [
        34.997549,
        32.7896807
      ]
    }
  },
  {
    "name": "בית ספר בית חיה",
    "address": "הרב לוין אריה",
    "city": "Haifa",
    "capacity": 50,
    "accessible": true,
    "type": "school_shelter",
    "location": {
      "type": "Point",
      "coordinates": [
        35.0724479,
        32.8413614
      ]
    }
  },
  {
    "name": "בית יד לבנים",
    "address": "הירקון 48",
    "city": "Haifa",
    "capacity": 50,
    "accessible": true,
    "type": "public_shelter",
    "location": {
      "type": "Point",
      "coordinates": [
        34.9843929,
        32.7897215
      ]
    }
  },
  {
    "name": "בית ספר בית יעקב",
    "address": "רחוב המימוני 2",
    "city": "Haifa",
    "capacity": 50,
    "accessible": true,
    "type": "school_shelter",
    "location": {
      "type": "Point",
      "coordinates": [
        34.9958231,
        32.8034978
      ]
    }
  },
  {
    "name": "בית ספר גבריאלי‎",
    "address": "זאב בנין 10",
    "city": "Haifa",
    "capacity": 50,
    "accessible": true,
    "type": "school_shelter",
    "location": {
      "type": "Point",
      "coordinates": [
        35.0179923,
        32.795548
      ]
    }
  },
  {
    "name": "בית ספר גיל‎",
    "address": "התשבי 34‎<br><br>משער בית ספר משמאל נכנסים לשביל נגיש שחלקו עם שיפוע בירידה. בסופו מימין דלת כניסה מברזל. אורך השביל 20 מטר. כשנכנסים בדלת הברזל פונים שמאלה במסדרון ובסוף המסדרון החדר הכי ימני הוא המקלט. יש 2 מקלטים נוספים, אחד בכניסה לבניין עם 20 מדרגות, והשני עם כניסה דרך שביל ו-30 מדרגות.",
    "city": "Haifa",
    "capacity": 50,
    "accessible": true,
    "type": "school_shelter",
    "location": {
      "type": "Point",
      "coordinates": [
        34.9772998,
        32.813546
      ]
    }
  },
  {
    "name": "בית ספר גורדון‎",
    "address": "זלמן ארן 43‎<br><br>הכל נגיש - מפלס אחד.",
    "city": "Haifa",
    "capacity": 50,
    "accessible": true,
    "type": "school_shelter",
    "location": {
      "type": "Point",
      "coordinates": [
        35.0596422,
        32.833515
      ]
    }
  },
  {
    "name": "בית ספר דוד ילין",
    "address": "יאיר כ\"ץ 4",
    "city": "Haifa",
    "capacity": 50,
    "accessible": true,
    "type": "school_shelter",
    "location": {
      "type": "Point",
      "coordinates": [
        34.9913504,
        32.8010703
      ]
    }
  },
  {
    "name": "בית ספר דינור ‎",
    "address": "קליבנוב 20‎<br><br>3 מקלטים צמודים תת קרקעים יורדים 20 מדרגות.",
    "city": "Haifa",
    "capacity": 50,
    "accessible": true,
    "type": "school_shelter",
    "location": {
      "type": "Point",
      "coordinates": [
        35.0102884,
        32.792868
      ]
    }
  },
  {
    "name": "בית ספר דרור ‎",
    "address": "דרור 19‎<br><br>3 מקלטים צמודים תת קרקעים יורדים 20 מדרגות.",
    "city": "Haifa",
    "capacity": 50,
    "accessible": true,
    "type": "school_shelter",
    "location": {
      "type": "Point",
      "coordinates": [
        34.9827368,
        32.8225481
      ]
    }
  },
  {
    "name": "בית ספר הבונים",
    "address": "חביבה רייך 16",
    "city": "Haifa",
    "capacity": 50,
    "accessible": true,
    "type": "school_shelter",
    "location": {
      "type": "Point",
      "coordinates": [
        35.0071015,
        32.7811641
      ]
    }
  },
  {
    "name": "בית ספר הנרייטה סולד",
    "address": "שד' ההגנה 23",
    "city": "Haifa",
    "capacity": 50,
    "accessible": true,
    "type": "school_shelter",
    "location": {
      "type": "Point",
      "coordinates": [
        34.9776533,
        32.8296268
      ]
    }
  },
  {
    "name": "בית ספר הפתוח‎",
    "address": "ברל כצנלסון 48‎<br><br>מקלט תחתי, 2 וחצי קומות מתחת להנגשה (3 גרמי מדרגו בסה\"כ).",
    "city": "Haifa",
    "capacity": 50,
    "accessible": true,
    "type": "school_shelter",
    "location": {
      "type": "Point",
      "coordinates": [
        35.0123403,
        32.7874793
      ]
    }
  },
  {
    "name": "בית ספר הרצל",
    "address": "צדקיהו 6",
    "city": "Haifa",
    "capacity": 50,
    "accessible": true,
    "type": "school_shelter",
    "location": {
      "type": "Point",
      "coordinates": [
        34.9806744,
        32.7989838
      ]
    }
  },
  {
    "name": "בית ספר חב\"ד בנים",
    "address": "אריה לוין 3",
    "city": "Haifa",
    "capacity": 50,
    "accessible": true,
    "type": "school_shelter",
    "location": {
      "type": "Point",
      "coordinates": [
        35.0717214,
        32.8415421
      ]
    }
  },
  {
    "name": "בית ספר חוגים ‎",
    "address": "לאון בלום 9<br><br>יש ממ\"דים בקומות. מי שצריך הנגשה יכנס בקומה הראשונה.<br>‎",
    "city": "Haifa",
    "capacity": 50,
    "accessible": true,
    "type": "school_shelter",
    "location": {
      "type": "Point",
      "coordinates": [
        34.9985323,
        32.7986957
      ]
    }
  },
  {
    "name": "בית ספר חופית",
    "address": "החיננית 3",
    "city": "Haifa",
    "capacity": 50,
    "accessible": true,
    "type": "school_shelter",
    "location": {
      "type": "Point",
      "coordinates": [
        34.9589739,
        32.8164871
      ]
    }
  },
  {
    "name": "חטיבת ביניים דגן‎",
    "address": "יצחק בן צבי 6‎<br><br>בדגן יש 3 מקלטים. מקלט גדול נגיש קרוב ביותר לשער ביה\"ס מקלט המנהלה. אין מדרגות עד למקלט. כדי להיכנס לתוך המקלט יש מדרגה אחת/הגבהה. יש עוד שני מקלטים בבניין הכיתות: מקלט בבנין המדעים, הכניסה לבניין נגישה, כניסה למקלט יש כ-5 מדרגות.",
    "city": "Haifa",
    "capacity": 50,
    "accessible": true,
    "type": "public_shelter",
    "location": {
      "type": "Point",
      "coordinates": [
        35.0628295,
        32.8202626
      ]
    }
  },
  {
    "name": "חטיבת ביניים לאו בק ‎",
    "address": "טשרניחובסקי 71‎<br><br>למקלט החיצוני יש להגיע מהשער התחתון, אליו מגיעים ב 35 מדרגות חיצוניות מהרחוב",
    "city": "Haifa",
    "capacity": 50,
    "accessible": true,
    "type": "public_shelter",
    "location": {
      "type": "Point",
      "coordinates": [
        34.9704939,
        32.8245974
      ]
    }
  },
  {
    "name": "תיכון ליאו בק‎",
    "address": "דרך צרפת 90 (ישנה אפשרות של כניסה גם מהשער העליון אדמונד פלג 20) חניונים מאוישים על ידי צוות עיריית חיפה ומרחבים מוגנים בתוך בניין התיכון. יש נגישות. (לא מאדמונד פלג)‎‎",
    "city": "Haifa",
    "capacity": 50,
    "accessible": true,
    "type": "school_shelter",
    "location": {
      "type": "Point",
      "coordinates": [
        34.9685906,
        32.8233836
      ]
    }
  },
  {
    "name": "בית ספר טשרניחובסקי ‎",
    "address": "טשרניחובסקי 34‎<br><br>מקלט בחצר ביה\"ס מקלט תחתי- 15-20 מדרגות",
    "city": "Haifa",
    "capacity": 50,
    "accessible": true,
    "type": "school_shelter",
    "location": {
      "type": "Point",
      "coordinates": [
        34.975561,
        32.8209854
      ]
    }
  },
  {
    "name": "בית ספר יבנה ‎",
    "address": "אליעזר אלתר 30‎<br><br>מרחוב גדליהו קיימת הנגשה מסלול ארוך בערך 80 מטר קיימת מדרגה בגובה 30 ס״מ לכניסה למקלט",
    "city": "Haifa",
    "capacity": 50,
    "accessible": true,
    "type": "school_shelter",
    "location": {
      "type": "Point",
      "coordinates": [
        35.0121392,
        32.7743129
      ]
    }
  },
  {
    "name": "בית ספר יבניאלי",
    "address": "יואב 5",
    "city": "Haifa",
    "capacity": 50,
    "accessible": true,
    "type": "school_shelter",
    "location": {
      "type": "Point",
      "coordinates": [
        34.9772412,
        32.8283359
      ]
    }
  },
  {
    "name": "בית ספר יזרעאליה",
    "address": "צ'רניאבסקי 20",
    "city": "Haifa",
    "capacity": 50,
    "accessible": true,
    "type": "school_shelter",
    "location": {
      "type": "Point",
      "coordinates": [
        35.0126065,
        32.7901968
      ]
    }
  },
  {
    "name": "יחל ישראל בנות יסודי",
    "address": "מקור ברוך 20",
    "city": "Haifa",
    "capacity": 50,
    "accessible": true,
    "type": "public_shelter",
    "location": {
      "type": "Point",
      "coordinates": [
        35.0034065,
        32.797872
      ]
    }
  },
  {
    "name": "יסודי הריאלי הדר",
    "address": "קסל 5",
    "city": "Haifa",
    "capacity": 50,
    "accessible": true,
    "type": "public_shelter",
    "location": {
      "type": "Point",
      "coordinates": [
        34.9952292,
        32.8101648
      ]
    }
  },
  {
    "name": "בית ספר ליאו-בק הדר‎",
    "address": "שד' אליהו גולומב 4<br><br>המקלט נגיש לקומה 1 ואז כ-20 מדרגות למקלט.<br>‎",
    "city": "Haifa",
    "capacity": 50,
    "accessible": true,
    "type": "school_shelter",
    "location": {
      "type": "Point",
      "coordinates": [
        34.9901495,
        32.8103685
      ]
    }
  },
  {
    "name": "אורט כרמל",
    "address": "התשעים ושלוש 8",
    "city": "Haifa",
    "capacity": 50,
    "accessible": true,
    "type": "public_shelter",
    "location": {
      "type": "Point",
      "coordinates": [
        34.9978524,
        32.8168396
      ]
    }
  },
  {
    "name": "אגף החינוך, עיריית חיפה",
    "address": "הרב מרכוס 11",
    "city": "Haifa",
    "capacity": 50,
    "accessible": true,
    "type": "public_shelter",
    "location": {
      "type": "Point",
      "coordinates": [
        35.0014154,
        32.8108488
      ]
    }
  },
  {
    "name": "בית ספר מוריה ברקאי‎",
    "address": "מרדכי אנילביץ' 26‎",
    "city": "Haifa",
    "capacity": 50,
    "accessible": true,
    "type": "school_shelter",
    "location": {
      "type": "Point",
      "coordinates": [
        34.9877991,
        32.8212746
      ]
    }
  },
  {
    "name": "בית ספר נופים",
    "address": "סורוקה 22",
    "city": "Haifa",
    "capacity": 50,
    "accessible": true,
    "type": "school_shelter",
    "location": {
      "type": "Point",
      "coordinates": [
        34.992424,
        32.7752751
      ]
    }
  },
  {
    "name": "בית ספר נירים",
    "address": "המלך יהושפט 6",
    "city": "Haifa",
    "capacity": 50,
    "accessible": true,
    "type": "school_shelter",
    "location": {
      "type": "Point",
      "coordinates": [
        34.9614203,
        32.8075285
      ]
    }
  },
  {
    "name": "בית ספר עבד אל רחמן",
    "address": "גוש עציון 24א'",
    "city": "Haifa",
    "capacity": 50,
    "accessible": true,
    "type": "school_shelter",
    "location": {
      "type": "Point",
      "coordinates": [
        35.0074426,
        32.8006788
      ]
    }
  },
  {
    "name": "בית ספר עופר",
    "address": "דרך הים 196",
    "city": "Haifa",
    "capacity": 50,
    "accessible": true,
    "type": "school_shelter",
    "location": {
      "type": "Point",
      "coordinates": [
        34.9640206,
        32.8165705
      ]
    }
  },
  {
    "name": "בית ספר עין הים",
    "address": "יציאת אירופה 17",
    "city": "Haifa",
    "capacity": 50,
    "accessible": true,
    "type": "school_shelter",
    "location": {
      "type": "Point",
      "coordinates": [
        34.9588232,
        32.822623
      ]
    }
  },
  {
    "name": "עירוני א'‎",
    "address": "תל אביב 27‎<br><br>המקלט ממוקם בקומה הראשונה של בית הספר, בסמוך למסדרון שכבת י'. הכניסה דרך השער הראשי של בית הספר – יש להמשיך ישר בהתאם לשילוט המכוון למקלט. המקלט תחתי ויש 18 מדרגות.",
    "city": "Haifa",
    "capacity": 50,
    "accessible": true,
    "type": "public_shelter",
    "location": {
      "type": "Point",
      "coordinates": [
        34.9850102,
        32.8257744
      ]
    }
  },
  {
    "name": "ישיבת בני עקיבא עירוני ב‎‎",
    "address": "יוסף שטרן 7‎<br><br>מקלט עילי שביל גישה ללא שום מדריגה",
    "city": "Haifa",
    "capacity": 50,
    "accessible": true,
    "type": "public_shelter",
    "location": {
      "type": "Point",
      "coordinates": [
        35.0698631,
        32.8395463
      ]
    }
  },
  {
    "name": "עירוני ג'‎",
    "address": "גדליהו 24‎<br><br>מרחוב גדליהו קיימת הנגשה מסלול ארוך בערך 80 מטר קיימת מדרגה בגובה 30 ס״מ לכניסה למקלט.",
    "city": "Haifa",
    "capacity": 50,
    "accessible": true,
    "type": "public_shelter",
    "location": {
      "type": "Point",
      "coordinates": [
        35.0215377,
        32.7843818
      ]
    }
  },
  {
    "name": "עירוני ג' (מצדה)",
    "address": "פינסקר 13",
    "city": "Haifa",
    "capacity": 50,
    "accessible": true,
    "type": "public_shelter",
    "location": {
      "type": "Point",
      "coordinates": [
        35.020793,
        32.7850246
      ]
    }
  },
  {
    "name": "עירוני ה'‎",
    "address": "ביכורים 25‎<br><br>הכניסה לביכורים נגישה. אבל כדי להגיע למקלט התחתי, נדרשת ירידה במדרגות רבות, מעל 30 מדרגות.",
    "city": "Haifa",
    "capacity": 50,
    "accessible": true,
    "type": "public_shelter",
    "location": {
      "type": "Point",
      "coordinates": [
        34.9886385,
        32.799577
      ]
    }
  },
  {
    "name": "עירוני ו' ‎",
    "address": "דרך יד לבנים 97‎<br><br>מקלט תחתי, 10 קומות לרדת ברגל .",
    "city": "Haifa",
    "capacity": 50,
    "accessible": true,
    "type": "public_shelter",
    "location": {
      "type": "Point",
      "coordinates": [
        35.0198748,
        32.793672
      ]
    }
  },
  {
    "name": "בית ספר אנתרופוסופי יסודי עליה‎‎",
    "address": "העלייה השנייה 27‎<br><br>3 מקלטים צמודים תת-קרקעיים יורדים 20 מדרגות.",
    "city": "Haifa",
    "capacity": 50,
    "accessible": true,
    "type": "school_shelter",
    "location": {
      "type": "Point",
      "coordinates": [
        34.9818628,
        32.8321766
      ]
    }
  },
  {
    "name": "בית ספר רוממה‎‎",
    "address": "אורן 27א'‎<br><br>מקלט גדול בקומה 2- המעלית יורדת רק ל- מינוס 1 ויש עוד 20 מדרגות למקלט.",
    "city": "Haifa",
    "capacity": 50,
    "accessible": true,
    "type": "school_shelter",
    "location": {
      "type": "Point",
      "coordinates": [
        34.9972044,
        32.785599
      ]
    }
  },
  {
    "name": "ריאלי בית בירם",
    "address": "שד' אבא חושי 15",
    "city": "Haifa",
    "capacity": 50,
    "accessible": true,
    "type": "public_shelter",
    "location": {
      "type": "Point",
      "coordinates": [
        34.9965346,
        32.7787785
      ]
    }
  },
  {
    "name": "בית ספר רמב\"ם",
    "address": "ציון 7",
    "city": "Haifa",
    "capacity": 50,
    "accessible": true,
    "type": "school_shelter",
    "location": {
      "type": "Point",
      "coordinates": [
        35.0163157,
        32.790972
      ]
    }
  },
  {
    "name": "בית ספר רמות",
    "address": "דרך צרפת 85",
    "city": "Haifa",
    "capacity": 50,
    "accessible": true,
    "type": "school_shelter",
    "location": {
      "type": "Point",
      "coordinates": [
        34.9666751,
        32.8228442
      ]
    }
  },
  {
    "name": "חטיבת ביניים רעות",
    "address": "צה\"ל 41",
    "city": "Haifa",
    "capacity": 50,
    "accessible": true,
    "type": "public_shelter",
    "location": {
      "type": "Point",
      "coordinates": [
        34.977747,
        32.8269418
      ]
    }
  },
  {
    "name": "בית ספר שלווה‎",
    "address": "יצחק שדה 26<br><br>מקלט תחתיי- 20 מדרגות",
    "city": "Haifa",
    "capacity": 50,
    "accessible": true,
    "type": "school_shelter",
    "location": {
      "type": "Point",
      "coordinates": [
        34.9866934,
        32.8213311
      ]
    }
  },
  {
    "name": "תיכון בית חיה מושקא",
    "address": "אריה לוין 5",
    "city": "Haifa",
    "capacity": 50,
    "accessible": true,
    "type": "school_shelter",
    "location": {
      "type": "Point",
      "coordinates": [
        35.0711521,
        32.8420646
      ]
    }
  },
  {
    "name": "תיכון בית יעקב",
    "address": "בצלאל 5",
    "city": "Haifa",
    "capacity": 50,
    "accessible": true,
    "type": "school_shelter",
    "location": {
      "type": "Point",
      "coordinates": [
        35.0000071,
        32.8037154
      ]
    }
  },
  {
    "name": "תיכון יחל ישראל בנות",
    "address": "מקור ברוך 22",
    "city": "Haifa",
    "capacity": 50,
    "accessible": true,
    "type": "school_shelter",
    "location": {
      "type": "Point",
      "coordinates": [
        35.0032113,
        32.7974152
      ]
    }
  },
  {
    "name": "תיכון עירוני מקיף קריית חיים‎",
    "address": "הגדוד העברי 48",
    "city": "Haifa",
    "capacity": 50,
    "accessible": true,
    "type": "school_shelter",
    "location": {
      "type": "Point",
      "coordinates": [
        35.068648,
        32.824015
      ]
    }
  },
  {
    "name": "בית ספר תל-חי ‎",
    "address": "הגליל 107‎<br><br>     מקלט תחתי- יש לרדת 30 מדרגות כדי להגיע אליו.",
    "city": "Haifa",
    "capacity": 50,
    "accessible": true,
    "type": "school_shelter",
    "location": {
      "type": "Point",
      "coordinates": [
        35.0210719,
        32.7872929
      ]
    }
  },
  {
    "name": "בית הספר נתיב אליעזר כרמל חיפה‎‎‎",
    "address": "רח' דישראלי 54<br>כניסה למקלט בית הספר כרמל נתיב אליעזר⬅מגיעים לרחוב דישראלי 54 א חיפה⬅יורדים בקיוסק בירידה עד הסוף/או לפני הקיוסק במדרגות.<br>⬅נכנסים בשער⬅מגיעים למבנה המרוחק לפי השילוט⬅יורדים לקומה 2-<br>שהייה נעימה ובטוחה.‎<br>‎",
    "city": "Haifa",
    "capacity": 50,
    "accessible": true,
    "type": "public_shelter",
    "location": {
      "type": "Point",
      "coordinates": [
        34.990844,
        32.788849
      ]
    }
  },
  {
    "name": "תיכון עתיד תיירות ומלונאות ע\"ש טומי לפיד‎",
    "address": "בעל שם טוב 20<br><br>מקלט תחתיי 55 מדרגות. כניסה דרך ביה\"ס - לרדת לחצר ושם יש דלת למרכז יובל.",
    "city": "Haifa",
    "capacity": 50,
    "accessible": true,
    "type": "school_shelter",
    "location": {
      "type": "Point",
      "coordinates": [
        34.9963582,
        32.8023214
      ]
    }
  },
  {
    "name": "בית ספר רגבים",
    "address": "דגניה 53<br><br>שני מקלטים בקומת קרקע, אין מדרגות. יש שתי כניסות למקלטים משני שערים שונים. שביל לאחד המקלטים הינו באורך 3-4 מטר, ולמקלט השני השביל באורך 20 מטר.",
    "city": "Haifa",
    "capacity": 50,
    "accessible": true,
    "type": "school_shelter",
    "location": {
      "type": "Point",
      "coordinates": [
        35.0545251,
        32.8313463
      ]
    }
  },
  {
    "name": "בית ספר מגינים",
    "address": "בן צבי 12<br>2 מקלטים עיליים ושניהם מונגשים - 2 מקלטים תחתיים לא נגישים - שני גרמי מדרגות למקלטים.<br>",
    "city": "Haifa",
    "capacity": 50,
    "accessible": true,
    "type": "school_shelter",
    "location": {
      "type": "Point",
      "coordinates": [
        35.065378,
        32.8191075
      ]
    }
  },
  {
    "name": "בית ספר הדו-לשוני",
    "address": "צה\"ל 14",
    "city": "Haifa",
    "capacity": 50,
    "accessible": true,
    "type": "school_shelter",
    "location": {
      "type": "Point",
      "coordinates": [
        34.9814684,
        32.8247084
      ]
    }
  },
  {
    "name": "בית ספר רמת הנשיא‎",
    "address": "אלמוג 11, חיפה",
    "city": "Haifa",
    "capacity": 50,
    "accessible": true,
    "type": "school_shelter",
    "location": {
      "type": "Point",
      "coordinates": [
        34.9622458,
        32.8105592
      ]
    }
  },
  {
    "name": "הכרמלית, תחנת מרכז הכרמל",
    "address": "32.8048667, 34.9878578",
    "city": "Haifa",
    "capacity": 50,
    "accessible": true,
    "type": "public_shelter",
    "location": {
      "type": "Point",
      "coordinates": [
        34.9878578,
        32.8048667
      ]
    }
  },
  {
    "name": "כרמלית גולומב",
    "address": "32.8072887, 34.9905927",
    "city": "Haifa",
    "capacity": 50,
    "accessible": true,
    "type": "public_shelter",
    "location": {
      "type": "Point",
      "coordinates": [
        34.9905927,
        32.8072887
      ]
    }
  },
  {
    "name": "כרמלית מסדה",
    "address": "32.8096842, 34.9924844",
    "city": "Haifa",
    "capacity": 50,
    "accessible": true,
    "type": "public_shelter",
    "location": {
      "type": "Point",
      "coordinates": [
        34.9924844,
        32.8096842
      ]
    }
  },
  {
    "name": "כרמלית הנביאים",
    "address": "32.8127756, 34.9951626",
    "city": "Haifa",
    "capacity": 50,
    "accessible": true,
    "type": "public_shelter",
    "location": {
      "type": "Point",
      "coordinates": [
        34.9951626,
        32.8127756
      ]
    }
  },
  {
    "name": "כרמלית הדר–עירייה",
    "address": "32.8145668, 34.9973263",
    "city": "Haifa",
    "capacity": 50,
    "accessible": true,
    "type": "public_shelter",
    "location": {
      "type": "Point",
      "coordinates": [
        34.9973263,
        32.8145668
      ]
    }
  },
  {
    "name": "מיגונית חוף נאות / דגניה/טרומן",
    "address": "הנשיא טרומן 12",
    "city": "Haifa",
    "capacity": 50,
    "accessible": true,
    "type": "migunit",
    "location": {
      "type": "Point",
      "coordinates": [
        35.0543439,
        32.8346678
      ]
    }
  },
  {
    "name": "מיגונית שחאדה/חורי",
    "address": "שחאדה 11 א'",
    "city": "Haifa",
    "capacity": 50,
    "accessible": true,
    "type": "migunit",
    "location": {
      "type": "Point",
      "coordinates": [
        34.9937628,
        32.8177865
      ]
    }
  },
  {
    "name": "מיגונית חקר ימים ואגמים",
    "address": "חוף שקמונה",
    "city": "Haifa",
    "capacity": 50,
    "accessible": true,
    "type": "migunit",
    "location": {
      "type": "Point",
      "coordinates": [
        34.9566967,
        32.8260582
      ]
    }
  },
  {
    "name": "מיגונית פארק הכט - גן מונגש",
    "address": "32.8180418, 34.9554649",
    "city": "Haifa",
    "capacity": 50,
    "accessible": true,
    "type": "migunit",
    "location": {
      "type": "Point",
      "coordinates": [
        34.9554649,
        32.8180418
      ]
    }
  },
  {
    "name": "מיגונית בית נגלר",
    "address": "בן צבי יצחק 16",
    "city": "Haifa",
    "capacity": 50,
    "accessible": true,
    "type": "migunit",
    "location": {
      "type": "Point",
      "coordinates": [
        35.0666111,
        32.8191469
      ]
    }
  },
  {
    "name": "מיגונית שד' דגניה",
    "address": "בחניה ליד עירונית ק\"ח",
    "city": "Haifa",
    "capacity": 50,
    "accessible": true,
    "type": "migunit",
    "location": {
      "type": "Point",
      "coordinates": [
        35.057532,
        32.829856
      ]
    }
  },
  {
    "name": "מיגונית צומת שד׳ דגניה/בית אלפא",
    "address": "צמוד לבית צ׳רנה",
    "city": "Haifa",
    "capacity": 50,
    "accessible": true,
    "type": "migunit",
    "location": {
      "type": "Point",
      "coordinates": [
        35.0555959,
        32.8319674
      ]
    }
  },
  {
    "name": "מיגונית טיילת חולדה גורביץ'",
    "address": "בכניסה לטיילת, סמוך לחוף הכלבים",
    "city": "Haifa",
    "capacity": 50,
    "accessible": true,
    "type": "migunit",
    "location": {
      "type": "Point",
      "coordinates": [
        34.9801187,
        32.8355887
      ]
    }
  },
  {
    "name": "מיגונית חוף זמיר",
    "address": "חוף הכרמל, חניון נכים",
    "city": "Haifa",
    "capacity": 50,
    "accessible": true,
    "type": "migunit",
    "location": {
      "type": "Point",
      "coordinates": [
        34.9566054,
        32.795399
      ]
    }
  }
]